timestamp,timestamp_sample,lat,lon,alt,alt_ellipsoid,delta_alt,eph,epv,terrain_alt,lat_lon_reset_counter,alt_reset_counter,terrain_alt_valid,dead_reckoning
644103617,644102233,46.94753652185391,8.712562722796969,1498.3269,1545.709,0.0,0.71873975,2.3182652,1498.2258,2,92,1,0
644113779,644112227,46.947536521472244,8.712562723393729,1498.3269,1545.709,0.0,0.71892345,2.318288,1498.226,2,93,1,0
644303889,644302099,46.94753651566589,8.712562727483109,1498.326,1545.7075,0.0,0.7178499,2.318211,1498.225,2,112,1,0
644503797,644501969,46.947536513204426,8.712562745498968,1498.3252,1545.7062,0.0,0.718343,2.3183432,1498.2246,2,132,1,0
644703565,644701831,46.94753652494578,8.712562738758711,1498.324,1545.7046,0.0,0.7187634,2.318473,1498.225,2,152,1,0
644903449,644901697,46.94753654438035,8.712562725315896,1498.324,1545.7041,0.0,0.71912354,2.3186004,1498.2239,2,172,1,0
645103346,645101563,46.9475365522751,8.712562713380699,1498.3214,1545.7008,0.0,0.71942693,2.3187227,1498.2181,2,192,1,0
645302886,645301429,46.94753656021275,8.712562719750311,1498.3175,1545.6963,0.0,0.71969306,2.3188403,1498.2146,2,212,1,0
645503072,645501295,46.94753657509315,8.71256273193047,1498.3125,1545.6906,0.0,0.71989757,2.3189485,1498.2095,2,231,1,0
645702863,645701162,46.947536592224914,8.712562739135537,1498.3076,1545.6848,0.0,0.72006255,2.3190486,1498.2058,2,251,1,0
645902898,645901027,46.94753660474676,8.712562750693811,1498.3018,1545.6777,0.0,0.7201941,2.3191397,1498.1989,2,15,1,0
646102903,646100893,46.94753661836211,8.71256275340748,1498.295,1545.6693,0.0,0.72029674,2.319222,1498.191,2,35,1,0
646302511,646300759,46.94753663627005,8.71256276043666,1498.2853,1545.6577,0.0,0.7203882,2.319297,1498.177,2,55,1,0
646502095,646500634,46.947536662411544,8.712562799615462,1498.2722,1545.6437,0.0,0.7223657,2.3196938,1498.1678,2,75,1,0
646702224,646700492,46.947536698832096,8.71256284495658,1498.2567,1545.6249,0.0,0.7204728,2.3194165,1498.1472,2,95,1,0
646902132,646900358,46.947536735732946,8.712562909796027,1498.2391,1545.6051,0.0,0.72050136,2.3194656,1498.1293,2,115,1,0
647102083,647100224,46.94753677161748,8.712562977154432,1498.2195,1545.5831,0.0,0.7205186,2.3195078,1498.1122,2,135,1,0
647301892,647300090,46.94753680680729,8.712563043771596,1498.2008,1545.5621,0.0,0.72052693,2.3195436,1498.0981,2,155,1,0
647501523,647499956,46.947536844025485,8.712563108943975,1498.1831,1545.5432,0.0,0.7223938,2.3199296,1498.0859,2,175,1,0
647701676,647699822,46.947536870612964,8.712563174939262,1498.1647,1545.5211,0.0,0.7205124,2.3195972,1498.0645,2,195,1,0
647901551,647899689,46.94753690648036,8.712563251092018,1498.1455,1545.4995,0.0,0.720505,2.319618,1498.0424,2,215,1,0
648100883,648099555,46.94753693383117,8.71256332436149,1498.1251,1545.4779,0.0,0.72232294,2.3199973,1498.0305,2,235,1,0
648301307,648299421,46.94753695100584,8.712563392059126,1498.1039,1545.4529,0.0,0.7204697,2.3196473,1498.0034,2,255,1,0
648500595,648499288,46.94753696834348,8.712563469311194,1498.0812,1545.429,0.0,0.72226095,2.320022,1497.986,2,19,1,0
648700894,648699154,46.947536988082554,8.712563546877345,1498.0571,1545.4011,0.0,0.7204293,2.319665,1497.9567,2,39,1,0
648900314,648899020,46.947537011792605,8.71256362759061,1498.0317,1545.3734,0.0,0.720426,2.3196738,1497.9348,2,59,1,0
649100721,649098887,46.94753703953795,8.712563710156969,1498.0082,1545.3474,0.0,0.72040874,2.3196788,1497.9121,2,79,1,0
649300463,649298753,46.94753706045631,8.712563782239211,1497.9839,1545.3208,0.0,0.72039104,2.3196824,1497.8888,2,99,1,0
649500048,649498620,46.947537081653415,8.7125638535174,1497.96,1545.2958,0.0,0.7221349,2.3200505,1497.871,2,119,1,0
649700433,649698488,46.94753709887097,8.712563923369652,1497.9371,1545.2698,0.0,0.720345,2.319685,1497.8448,2,139,1,0
649900157,649898353,46.94753712124735,8.712563992179138,1497.9135,1545.2439,0.0,0.72032857,2.3196862,1497.8177,2,159,1,0
650099800,650098222,46.947537143572276,8.712564065473742,1497.8865,1545.2158,0.0,0.7220497,2.3200521,1497.7957,2,179,1,0
650309504,650308078,46.94753716558845,8.712564133284443,1497.859,1545.1854,0.0,0.7204489,2.3197217,1497.7682,2,200,1,0
650509649,650507945,46.9475371895515,8.712564191264315,1497.8346,1545.159,0.0,0.7204225,2.31972,1497.7456,2,220,1,0
650699723,650697818,46.94753721250679,8.712564238690966,1497.8118,1545.1345,0.0,0.72023726,2.3196816,1497.7208,2,239,1,0
650899629,650897685,46.9475372398919,8.71256429498106,1497.787,1545.1079,0.0,0.7202152,2.31968,1497.6991,2,3,1,0
651099048,651097551,46.9475372612648,8.712564334279222,1497.7631,1545.0831,0.0,0.72190464,2.3200438,1497.6779,2,23,1,0
651299314,651297418,46.94753729004362,8.712564403622645,1497.7396,1545.0573,0.0,0.72018486,2.3196783,1497.6504,2,43,1,0
651499150,651497284,46.94753728394139,8.712564443567848,1497.7214,1545.0382,0.0,0.7218661,2.3200421,1497.6335,2,63,1,0
651708543,651707144,46.947537059989074,8.712564134076052,1497.6986,1545.0126,0.0,0.72031677,2.3197134,1497.6106,2,84,1,0
651908504,651907011,46.947536781836845,8.71256365027401,1497.6885,1545.0004,0.0,0.72030836,2.319714,1497.596,2,104,1,0
652108779,652106877,46.94753659245247,8.712563280685359,1497.6854,1544.9951,0.0,0.7202911,2.3197129,1497.5948,2,124,1,0
652308043,652306744,46.94753653440167,8.712563104138837,1497.6794,1544.9869,0.0,0.72028536,2.3197138,1497.5859,2,144,1,0
652508516,652506611,46.947536618945485,8.712563079872618,1497.6731,1544.9783,0.0,0.7202673,2.3197129,1497.5793,2,164,1,0
652698261,652696484,46.94753682203081,8.712563159253966,1497.6736,1544.9763,0.0,0.72009385,2.3196816,1497.5785,2,181,1,0
652898113,652896351,46.947537199392684,8.712563299259605,1497.6825,1544.9827,0.0,0.72008884,2.3196828,1497.5785,2,201,1,0
653107990,653106211,46.94753772769843,8.712563506177522,1497.721,1545.0182,0.0,0.72023034,2.3197126,1497.5785,2,222,1,0
653307526,653306078,46.947538276309345,8.712563826347813,1497.7892,1545.0834,0.0,0.7217811,2.32006,1497.5785,2,242,1,0
653507789,653505950,46.947538845770076,8.71256437187961,1497.8872,1545.1781,0.0,0.7215358,2.3200197,1497.5785,2,6,1,0
653707265,653705811,46.94753928716514,8.71256512768449,1498.0139,1545.3016,0.0,0.7213262,2.3199832,1497.5785,2,26,1,0
653907419,653905678,46.947539424832854,8.712565992690422,1498.1716,1545.456,0.0,0.7211575,2.3199527,1497.5785,2,46,1,0
654107605,654105545,46.94753925635453,8.712566788830628,1498.3667,1545.648,0.0,0.72100115,2.3199234,1497.5785,2,66,1,0
654306867,654305412,46.94753886896271,8.712567377637955,1498.594,1545.8721,0.0,0.72087896,2.3198996,1497.5785,2,86,1,0
654507136,654505279,46.94753836535352,8.712567698368453,1498.8379,1546.1119,0.0,0.7207534,2.319881,1497.5785,2,106,1,0
654706563,654705146,46.947537850380186,8.712567661577191,1499.0823,1546.3529,0.0,0.7206575,2.319861,1497.5785,2,126,1,0
654906389,654905012,46.94753735966559,8.712567276956777,1499.3263,1546.5934,0.0,0.7205891,2.3198454,1497.5785,2,146,1,0
655106682,655104879,46.94753688438444,8.71256659391263,1499.5752,1546.8386,0.0,0.7205115,2.31983,1497.5785,2,165,1,0
655306501,655304746,46.947536459023254,8.712565670123096,1499.8289,1547.0885,0.0,0.7204054,2.3198166,1497.5785,2,185,1,0
655506437,655504613,46.94753608713709,8.712564593022865,1500.0892,1547.3448,0.0,0.7202754,2.319803,1497.5785,2,205,1,0
655706296,655704480,46.94753584125823,8.712563400012971,1500.3556,1547.6072,0.0,0.720143,2.3197913,nan,2,225,0,0
655906120,655904347,46.94753568575102,8.712562250415667,1500.627,1547.8745,0.0,0.7200196,2.319781,nan,2,245,0,0
656105662,656104214,46.947535631739335,8.712561227595092,1500.9032,1548.1471,0.0,0.71992946,2.3197763,nan,2,9,0,0
656305452,656304081,46.94753563353998,8.712560402659902,1501.1869,1548.427,0.0,0.71986103,2.3197725,nan,2,29,0,0
656505723,656503948,46.94753573313111,8.712559793286685,1501.4735,1548.7096,0.0,0.71980846,2.3197672,nan,2,49,0,0
656705160,656703816,46.94753589264708,8.712559433534748,1501.7601,1548.9924,0.0,0.7197805,2.3197632,nan,2,69,0,0
656905479,656903689,46.94753609533776,8.71255927355271,1502.0494,1549.2776,0.0,0.71976566,2.3197577,nan,2,88,0,0
657105270,657103550,46.94753631140376,8.712559322480448,1502.337,1549.5612,0.0,0.7197795,2.319755,nan,2,108,0,0
657304734,657303416,46.94753651128152,8.71255951883293,1502.623,1549.8431,0.0,0.71980876,2.319753,nan,2,128,0,0
657505265,657503284,46.947536672967736,8.71255983458761,1502.905,1550.1205,0.0,0.7198384,2.319749,nan,2,148,0,0
657705080,657703151,46.947536757884876,8.71256024483768,1503.1846,1550.396,0.0,0.7198747,2.3197458,nan,2,168,0,0
657904684,657903021,46.947536777765684,8.712560722754073,1503.464,1550.6715,0.0,0.7199244,2.319745,nan,2,188,0,0
658104657,658102885,46.94753675394874,8.71256120988574,1503.7432,1550.9464,0.0,0.71996236,2.3197424,nan,2,208,0,0
658304579,658302753,46.94753670264804,8.71256162693903,1504.0216,1551.2208,0.0,0.7200084,2.319742,nan,2,228,0,0
658504000,658502620,46.947536629631344,8.712561964679862,1504.3015,1551.4987,0.0,0.72172266,2.3201141,nan,2,248,0,0
658704289,658702487,46.947536567686974,8.712562196197492,1504.5809,1551.7719,0.0,0.72005475,2.3197358,nan,2,12,0,0
658904355,658902354,46.947536555731276,8.712562348069655,1504.8634,1552.0503,0.0,0.72008604,2.319736,nan,2,32,0,0
659104026,659102221,46.947536572550035,8.712562434109794,1505.1487,1552.3315,0.0,0.72010064,2.3197343,nan,2,52,0,0
659303900,659302089,46.94753664806273,8.712562484350576,1505.4316,1552.6102,0.0,0.72010994,2.319733,nan,2,72,0,0
659503944,659501956,46.94753678780126,8.71256248671861,1505.7107,1552.8846,0.0,0.72011435,2.3197315,nan,2,92,0,0
659703249,659701823,46.947536953955726,8.712562500148652,1505.9889,1553.159,0.0,0.7201249,2.3197322,nan,2,112,0,0
659903451,659901691,46.94753715683092,8.712562569089847,1506.272,1553.4379,0.0,0.7201202,2.3197308,nan,2,131,0,0
660103504,660101558,46.94753736262218,8.712562657567064,1506.5547,1553.7163,0.0,0.7201124,2.3197298,nan,2,151,0,0
660303175,660301426,46.94753751028553,8.712562723210443,1506.8373,1553.995,0.0,0.72010213,2.3197286,nan,2,171,0,0
660502586,660501293,46.94753764755405,8.712562824653123,1507.1221,1554.2777,0.0,0.721739,2.3201,nan,2,191,0,0
660702895,660701160,46.947537725142304,8.712562931567215,1507.4098,1554.5599,0.0,0.7200669,2.3197248,nan,2,211,0,0
660902690,660901028,46.9475377651565,8.71256304945544,1507.6962,1554.8429,0.0,0.720054,2.3197238,nan,2,231,0,0
661102717,661100895,46.94753781697637,8.712563181822922,1507.9836,1555.1268,0.0,0.7200408,2.3197231,nan,2,251,0,0
661302487,661300762,46.94753788965884,8.712563325371772,1508.2794,1555.4192,0.0,0.72002757,2.3197224,nan,2,15,0,0
661502545,661500630,46.947538017437374,8.712563454874724,1508.6223,1555.758,0.0,0.72001547,2.319722,nan,2,35,0,0
661702480,661700497,46.94753816939765,8.712563656057894,1509.046,1556.1771,0.0,0.720008,2.3197212,nan,2,55,0,0
661902160,661900365,46.9475382987458,8.712563969199453,1509.563,1556.6887,0.0,0.72000766,2.3197207,nan,2,75,0,0
662102023,662100233,46.9475383300463,8.712564353889448,1510.138,1557.2582,0.0,0.7200147,2.3197203,nan,2,95,0,0
662301894,662300100,46.947538202894094,8.712564687051005,1510.7307,1557.8456,0.0,0.7200236,2.3197198,nan,2,115,0,0
662501403,662499969,46.94753795185714,8.712564899372031,1511.3142,1558.4268,0.0,0.72169155,2.3200927,nan,2,135,0,0
662701657,662699835,46.94753761586033,8.712564957603561,1511.8895,1558.9939,0.0,0.72003347,2.3197186,nan,2,155,0,0
662901597,662899703,46.94753724111434,8.712564847781374,1512.4663,1559.5653,0.0,0.7200343,2.3197181,nan,2,174,0,0
663101015,663099570,46.947536867101604,8.712564631591519,1513.0448,1560.1412,0.0,0.7216776,2.3200886,nan,2,194,0,0
663301281,663299438,46.947536541761046,8.712564360110276,1513.6224,1560.711,0.0,0.72002316,2.3197155,nan,2,214,0,0
663500776,663499305,46.94753629737929,8.712564085362473,1514.201,1561.287,0.0,0.7216581,2.3200858,nan,2,234,0,0
663701164,663699173,46.94753616635016,8.712563830596569,1514.7804,1561.8586,0.0,0.72000885,2.319713,nan,2,254,0,0
663901017,663899041,46.947536142455654,8.712563627246086,1515.3604,1562.4336,0.0,0.7200057,2.319713,nan,2,18,0,0
664100924,664098908,46.94753621114986,8.712563496693877,1515.9395,1563.0077,0.0,0.72000206,2.319713,nan,2,37,0,0
664310079,664308769,46.947536407056496,8.712563426332574,1516.5476,1563.6113,0.0,0.72016156,2.319752,nan,2,58,0,0
664499995,664498644,46.947536667184764,8.712563443387042,1517.0999,1564.1613,0.0,0.72163075,2.3200853,nan,2,77,0,0
664700229,664698512,46.94753699303554,8.712563543566892,1517.6826,1564.7367,0.0,0.7199794,2.319717,nan,2,97,0,0
664900150,664898379,46.947537343874295,8.712563735132585,1518.2664,1565.3159,0.0,0.719977,2.319717,nan,2,117,0,0
665099934,665098247,46.947537680853294,8.712563979376457,1518.8475,1565.8927,0.0,0.71997577,2.319717,nan,2,137,0,0
665299898,665298116,46.947537991729405,8.71256421760251,1519.4307,1566.4713,0.0,0.71997416,2.319717,nan,2,156,0,0
665499447,665497983,46.947538232967794,8.712564417636036,1520.0149,1567.0532,0.0,0.7215952,2.3200877,nan,2,176,0,0
665709659,665707844,46.94753840599648,8.712564570745492,1520.6296,1567.6609,0.0,0.72010744,2.319744,nan,2,197,0,0
665909170,665907712,46.947538518637266,8.712564613536168,1521.2064,1568.2335,0.0,0.7201092,2.3197446,nan,2,217,0,0
666109409,666107579,46.947538587635975,8.71256456594609,1521.7532,1568.7762,0.0,0.7201,2.319743,nan,2,237,0,0
666299297,666297454,46.9475386546792,8.712564448880643,1522.2128,1569.2325,0.0,0.7199475,2.3197124,nan,2,255,0,0
666498661,666497322,46.947538739325864,8.712564290952855,1522.5936,1569.612,0.0,0.7215361,2.3200831,nan,2,18,0,0
666698602,666697190,46.94753885668365,8.7125640871248,1522.8501,1569.8665,0.0,0.72148585,2.320079,nan,2,38,0,0
666898824,666897057,46.947538982283554,8.712563892687843,1522.9867,1570.0021,0.0,0.71988124,2.3197083,nan,2,58,0,0
667108711,667106919,46.947539170522674,8.712563728164175,1523.0342,1570.0498,0.0,0.719992,2.319744,nan,2,79,0,0
667308212,667306787,46.947539420603384,8.712563628907082,1523.0337,1570.0499,0.0,0.7199664,2.3197448,nan,2,99,0,0
667508540,667506655,46.94753968644367,8.71256364287096,1523.0255,1570.0425,0.0,0.71993667,2.3197436,nan,2,119,0,0
667707912,667706523,46.94753991651957,8.712563757115605,1523.0347,1570.0524,0.0,0.71991616,2.3197427,nan,2,139,0,0
667907779,667906390,46.94754005323068,8.712563993338007,1523.0902,1570.1083,0.0,0.7199148,2.3197436,nan,2,159,0,0
668108125,668106258,46.94754006716783,8.712564321587143,1523.2195,1570.2374,0.0,0.7199129,2.3197427,nan,2,179,0,0
668297885,668296133,46.94753996738357,8.712564671866255,1523.4357,1570.4531,0.0,0.71978045,2.3197067,nan,2,198,0,0
668507805,668505994,46.947539700805926,8.712565094265509,1523.8088,1570.8246,0.0,0.71995085,2.3197427,nan,2,219,0,0
668707165,668705863,46.94753932782268,8.712565477925756,1524.2814,1571.2948,0.0,0.71998084,2.3197417,nan,2,239,0,0
668907408,668905731,46.947538869099155,8.712565792531588,1524.821,1571.8315,0.0,0.72001594,2.3197408,nan,2,3,0,0
669107347,669105599,46.9475384201829,8.71256603636801,1525.393,1572.4001,0.0,0.7200398,2.319738,nan,2,23,0,0
669307248,669305468,46.947538036345875,8.712566206721275,1525.9723,1572.9763,0.0,0.72005975,2.3197353,nan,2,43,0,0
669507255,669505335,46.94753774950586,8.712566302014652,1526.5415,1573.5422,0.0,0.7200735,2.3197331,nan,2,63,0,0
669707373,669705203,46.94753757371987,8.712566283735153,1527.1083,1574.1063,0.0,0.7200801,2.319731,nan,2,83,0,0
669906462,669905074,46.94753750877351,8.71256616617988,1527.6782,1574.6737,0.0,0.72009206,2.319731,nan,2,103,0,0
670106709,670104939,46.947537549949665,8.7125659569057,1528.2526,1575.2455,0.0,0.7200986,2.319731,nan,2,123,0,0
670306218,670304807,46.94753765566039,8.712565690706873,1528.8287,1575.8195,0.0,0.72011125,2.319733,nan,2,143,0,0
670506530,670504675,46.94753779915533,8.712565388934856,1529.4071,1576.3949,0.0,0.72009903,2.319731,nan,2,163,0,0
670706297,670704544,46.94753796053247,8.71256510179913,1529.9863,1576.9714,0.0,0.72008497,2.319729,nan,2,183,0,0
670906359,670904413,46.94753812814054,8.71256486487914,1530.5677,1577.5503,0.0,0.72006917,2.3197274,nan,2,203,0,0
671106082,671104280,46.94753830756293,8.7125647222597,1531.148,1578.1277,0.0,0.72005254,2.319726,nan,2,223,0,0
671305907,671304149,46.9475384950002,8.712564681070527,1531.7286,1578.7054,0.0,0.72003525,2.3197246,nan,2,243,0,0
671505844,671504017,46.947538654572135,8.712564718000342,1532.3105,1579.2845,0.0,0.72002727,2.319725,nan,2,7,0,0
671705267,671703885,46.94753876764605,8.712564785754411,1532.8923,1579.8639,0.0,0.720019,2.3197258,nan,2,27,0,0
671905550,671903753,46.94753885238718,8.71256487879855,1533.4746,1580.4434,0.0,0.7200006,2.3197246,nan,2,47,0,0
672105321,672103621,46.94753889163805,8.712564988426372,1534.063,1581.0288,0.0,0.71998286,2.3197234,nan,2,67,0,0
672304792,672303490,46.94753887231929,8.7125650654335,1534.6566,1581.6198,0.0,0.719977,2.319724,nan,2,87,0,0
672505172,672503358,46.94753881247181,8.712565115259844,1535.2551,1582.2151,0.0,0.71996176,2.3197231,nan,2,107,0,0
672705002,672703227,46.94753875653952,8.712565138282258,1535.8534,1582.8105,0.0,0.7199483,2.319722,nan,2,127,0,0
672904805,672903095,46.94753870059437,8.71256513072546,1536.4504,1583.4049,0.0,0.71993583,2.319721,nan,2,147,0,0
673104874,673102963,46.947538655820225,8.712565119550401,1537.0481,1584.0001,0.0,0.7199244,2.31972,nan,2,167,0,0
673304680,673302832,46.94753863079372,8.712565131699197,1537.646,1584.5956,0.0,0.7199143,2.319719,nan,2,187,0,0
673504714,673502700,46.94753863055787,8.712565154394904,1538.2433,1585.1903,0.0,0.7199051,2.3197184,nan,2,207,0,0
673704429,673702568,46.94753865728257,8.71256518003669,1538.8398,1585.7847,0.0,0.7198969,2.319718,nan,2,227,0,0
673904214,673902436,46.94753870845057,8.71256520055888,1539.4381,1586.3807,0.0,0.71989006,2.3197172,nan,2,247,0,0
674104091,674102305,46.94753875957141,8.712565231615445,1540.0347,1586.9751,0.0,0.71988404,2.3197167,nan,2,11,0,0
674304021,674302173,46.947538795593154,8.712565305192715,1540.629,1587.5674,0.0,0.71987873,2.3197162,nan,2,31,0,0
674503411,674502042,46.94753880335075,8.712565424959202,1541.2234,1588.1608,0.0,0.721455,2.3200862,nan,2,51,0,0
674703778,674701910,46.94753879188391,8.712565572402788,1541.8131,1588.747,0.0,0.71986115,2.3197136,nan,2,71,0,0
674903746,674901779,46.94753877144166,8.712565717628951,1542.4003,1589.3318,0.0,0.71985835,2.3197134,nan,2,91,0,0
675103552,675101647,46.94753876666456,8.712565859978088,1542.9882,1589.9176,0.0,0.71985614,2.319713,nan,2,111,0,0
675303416,675301516,46.947538781236275,8.712565986736077,1543.5754,1590.5028,0.0,0.7198548,2.3197129,nan,2,131,0,0
675502969,675501384,46.94753882429512,8.712566060137453,1544.1654,1591.0918,0.0,0.72143155,2.320083,nan,2,151,0,0
675703153,675701253,46.94753887672818,8.712566102733463,1544.7557,1591.6785,0.0,0.71983486,2.319709,nan,2,171,0,0
675902521,675901121,46.94753892702138,8.71256613569338,1545.3473,1592.2684,0.0,0.71984607,2.3197112,nan,2,191,0,0
676102902,676100990,46.947538982542014,8.712566163508598,1545.9392,1592.8584,0.0,0.7198468,2.3197112,nan,2,211,0,0
676302633,676300858,46.94753901858948,8.712566236269248,1546.5294,1593.4468,0.0,0.7198474,2.3197112,nan,2,231,0,0
676502135,676500727,46.947539040953025,8.712566339841551,1547.1188,1594.0352,0.0,0.72142506,2.3200812,nan,2,251,0,0
676702371,676700596,46.94753904054998,8.712566446253197,1547.7114,1594.6246,0.0,0.71983033,2.3197136,nan,2,15,0,0
676902269,676900464,46.94753902851704,8.71256650625581,1548.3066,1595.2183,0.0,0.7198325,2.3197138,nan,2,35,0,0
677102189,677100335,46.947539002409876,8.712566523662373,1548.9025,1595.8124,0.0,0.7198347,2.319714,nan,2,55,0,0
677302054,677300206,46.947538983146835,8.712566518731274,1549.4984,1596.4066,0.0,0.71983653,2.3197143,nan,2,75,0,0
677501690,677500070,46.947538976268376,8.71256646965252,1550.092,1596.9994,0.0,0.7214131,2.3200848,nan,2,95,0,0
677701826,677699939,46.94753898182168,8.712566382073344,1550.6854,1597.5898,0.0,0.7198215,2.3197112,nan,2,114,0,0
677901584,677899808,46.94753899080562,8.712566286824233,1551.2788,1598.1816,0.0,0.71982455,2.3197117,nan,2,134,0,0
678101089,678099677,46.94753898336111,8.712566234259148,1551.8752,1598.7772,0.0,0.72139966,2.3200822,nan,2,154,0,0
678301340,678299545,46.94753896508009,8.71256623946668,1552.4735,1599.3726,0.0,0.7198211,2.319711,nan,2,174,0,0
678500768,678499414,46.947538950662846,8.712566290725198,1553.0702,1599.9684,0.0,0.7213955,2.3200812,nan,2,194,0,0
678701130,678699283,46.94753893987782,8.712566365602825,1553.6635,1600.5586,0.0,0.719818,2.3197103,nan,2,214,0,0
678900989,678899151,46.94753892928573,8.712566395013658,1554.2561,1601.1494,0.0,0.7198211,2.3197107,nan,2,234,0,0
679100406,679099020,46.94753892516896,8.712566386420326,1554.8453,1601.7375,0.0,0.72139454,2.320081,nan,2,254,0,0
679300755,679298889,46.947538901103,8.712566347543039,1555.4324,1602.3212,0.0,0.71981716,2.3197098,nan,2,18,0,0
679500123,679498758,46.94753887060029,8.712566281064062,1556.0189,1602.9067,0.0,0.7213891,2.3200803,nan,2,38,0,0
679710039,679708620,46.94753884985346,8.71256618671326,1556.6342,1603.5182,0.0,0.71995294,2.3197443,nan,2,59,0,0
679899882,679898495,46.9475388372458,8.712566092670256,1557.1903,1604.0732,0.0,0.7213742,2.3200777,nan,2,78,0,0
680099675,680098364,46.94753881783692,8.712566012999739,1557.7714,1604.652,0.0,0.72136706,2.3200765,nan,2,98,0,0
680300112,680298233,46.94753880467611,8.712565952149125,1558.3522,1605.2295,0.0,0.719797,2.3197062,nan,2,118,0,0
680499382,680498102,46.94753880116396,8.712565897605309,1558.9357,1605.8121,0.0,0.72136587,2.3200765,nan,2,138,0,0
680699710,680697970,46.94753881772963,8.712565842602908,1559.5166,1606.3898,0.0,0.7197871,2.3197045,nan,2,158,0,0
680899594,680897841,46.94753884535911,8.712565776714346,1560.0968,1606.9683,0.0,0.7197921,2.3197052,nan,2,178,0,0
681109179,681107702,46.94753884280326,8.712565725964662,1560.706,1607.576,0.0,0.7199456,2.3197432,nan,2,199,0,0
681309070,681307571,46.94753881700912,8.712565686057182,1561.272,1608.1407,0.0,0.71995,2.319744,nan,2,219,0,0
681509488,681507440,46.947538779113394,8.712565641023867,1561.8134,1608.6803,0.0,0.7199331,2.319741,nan,2,239,0,0
681698809,681697315,46.94753873200212,8.712565630357624,1562.3214,1609.1875,0.0,0.721333,2.320072,nan,2,2,0,0
681898528,681897184,46.947538670190596,8.71256566839954,1562.8347,1609.6995,0.0,0.72132504,2.3200712,nan,2,22,0,0
682098476,682097053,46.94753861157816,8.712565759282938,1563.31,1610.1736,0.0,0.7213031,2.3200684,nan,2,42,0,0
682299153,682296922,46.94753881425622,8.712566071601527,1563.7408,1610.6035,0.0,0.7197479,2.3196998,nan,2,62,0,0
682508609,682506784,46.94753955509052,8.712567142922293,1564.1256,1610.9883,0.0,0.71988374,2.3197362,nan,2,83,0,0
682708434,682706653,46.94754020810497,8.712568745824012,1564.483,1611.3456,0.0,0.7198637,2.3197336,nan,2,101,0,0
682908391,682906522,46.94754032972624,8.712570457688305,1564.8215,1611.6844,0.0,0.7198504,2.3197315,nan,2,121,0,0
683108167,683106391,46.947539803908455,8.712571876026052,1565.1237,1611.9874,0.0,0.71983725,2.319729,nan,2,141,0,0
683308073,683306260,46.947538677689806,8.712572606159265,1565.3938,1612.2593,0.0,0.7198216,2.319727,nan,2,161,0,0
683507926,683506129,46.947537029683325,8.712572388974914,1565.6311,1612.4988,0.0,0.7198135,2.3197267,nan,2,181,0,0
683697427,683696005,46.94753527398005,8.712571242695837,1565.8372,1612.7058,0.0,0.72118556,2.3200564,nan,2,199,0,0
683907577,683905868,46.94753343492033,8.712569078979724,1566.0474,1612.9192,0.0,0.71978843,2.3197231,nan,2,220,0,0
684107468,684105737,46.94753203933271,8.712566485006013,1566.2446,1613.1185,0.0,0.7197962,2.3197234,nan,2,240,0,0
684307326,684305606,46.94753093683946,8.712563620015386,1566.4281,1613.3042,0.0,0.7198057,2.3197222,nan,2,3,0,0
684506911,684505475,46.94752991019109,8.712560661503163,1566.5854,1613.4628,0.0,0.7214137,2.320092,nan,2,23,0,0
684707047,684705344,46.947528833408136,8.712557707633277,1566.719,1613.6,0.0,0.7198312,2.319718,nan,2,43,0,0
684906540,684905213,46.94752764110687,8.712554714050889,1566.8379,1613.7216,0.0,0.7198658,2.3197188,nan,2,62,0,0
685106999,685105082,46.94752624655855,8.712551640484302,1566.9504,1613.8369,0.0,0.7198919,2.319718,nan,2,82,0,0
685306896,685304951,46.9475246114772,8.71254844828873,1567.0511,1613.9406,0.0,0.71991956,2.3197172,nan,2,102,0,0
685506213,685504820,46.947522705402946,8.712545032340403,1567.1375,1614.0283,0.0,0.7215943,2.320087,nan,2,122,0,0
685706597,685704690,46.947520498349824,8.712541360370466,1567.2125,1614.1077,0.0,0.7199627,2.3197138,nan,2,142,0,0
685906288,685904559,46.94751794936448,8.712537381899526,1567.2771,1614.1753,0.0,0.71999687,2.3197153,nan,2,162,0,0
686106207,686104428,46.94751502997791,8.712533018450765,1567.3308,1614.2318,0.0,0.72001755,2.3197148,nan,2,182,0,0
686306100,686304297,46.94751170510528,8.712528226668274,1567.3745,1614.2783,0.0,0.72003496,2.3197143,nan,2,202,0,0
686505519,686504166,46.947507956941486,8.712522947856295,1567.4125,1614.3176,0.0,0.7217175,2.3200846,nan,2,222,0,0
686706462,686704036,46.94750377028496,8.712517179056421,1567.4447,1614.3538,0.0,0.7200514,2.319712,nan,2,242,0,0
686905788,686903905,46.947499135774166,8.712510803304145,1567.4746,1614.3864,0.0,0.7200618,2.319712,nan,2,6,0,0
687105673,687103774,46.94749408179207,8.712503722775214,1567.5062,1614.4207,0.0,0.7200697,2.319712,nan,2,25,0,0
687306062,687303643,46.947488588658445,8.712495907468771,1567.5388,1614.4558,0.0,0.72007614,2.319712,nan,2,44,0,0
687504929,687503513,46.94748264526051,8.71248732876596,1567.571,1614.4893,0.0,0.72175276,2.3200827,nan,2,64,0,0
687705322,687703382,46.947476223380015,8.712477998125097,1567.6018,1614.5237,0.0,0.72007585,2.3197107,nan,2,83,0,0
687905656,687903251,46.94746929647209,8.712467831284448,1567.631,1614.555,0.0,0.7200796,2.3197112,nan,2,103,0,0
688105001,688103121,46.947461831832875,8.712456817389999,1567.6547,1614.5808,0.0,0.7200832,2.319712,nan,2,123,0,0
688304815,688302990,46.94745382415101,8.7124449387784,1567.677,1614.6051,0.0,0.7200859,2.3197126,nan,2,143,0,0
688505207,688502860,46.94744522321664,8.71243215748418,1567.7017,1614.632,0.0,0.7200891,2.3197134,nan,2,163,0,0
688704735,688702729,46.94743602437001,8.712418379634979,1567.726,1614.6584,0.0,0.7200825,2.3197184,nan,2,182,0,0
688904389,688902598,46.94742610490529,8.712403545192116,1567.7574,1614.692,0.0,0.720087,2.3197193,nan,2,202,0,0
689104806,689102467,46.94741541317358,8.71238756257033,1567.7959,1614.7327,0.0,0.7200937,2.3197205,nan,2,222,0,0
689304289,689302337,46.947403943016326,8.712370390362308,1567.836,1614.7751,0.0,0.7201018,2.3197217,nan,2,242,0,0
689503596,689502206,46.947391668394516,8.712352072340316,1567.8704,1614.8105,0.0,0.7218147,2.3200965,nan,2,6,0,0
689704336,689702075,46.947378594247894,8.712332664915248,1567.8937,1614.8374,0.0,0.72010034,2.3197212,nan,2,26,0,0
689903729,689901945,46.94736468406509,8.712312089367241,1567.9207,1614.8667,0.0,0.7201119,2.3197234,nan,2,46,0,0
690103323,690101815,46.94734997894453,8.712290334390929,1567.9496,1614.8969,0.0,0.72183406,2.3200996,nan,2,66,0,0
690303872,690301684,46.9473345199678,8.712267516701136,1567.9684,1614.9192,0.0,0.72012275,2.319726,nan,2,86,0,0
690502944,690501554,46.94731829914067,8.712243578257326,1567.9929,1614.945,0.0,0.7218385,2.320103,nan,2,106,0,0
690703379,690701423,46.947301384526874,8.712218666026539,1568.022,1614.9772,0.0,0.720117,2.319727,nan,2,126,0,0
690903519,690901292,46.947283621163365,8.712192669530266,1568.0449,1615.0024,0.0,0.72012115,2.3197293,nan,2,146,0,0
691103015,691101162,46.947264848340524,8.712165447786912,1568.0594,1615.0192,0.0,0.7201235,2.3197317,nan,2,165,0,0
691302813,691301031,46.94724487754327,8.712136868735719,1568.0635,1615.0254,0.0,0.7201246,2.319734,nan,2,185,0,0
691502191,691500901,46.94722350224519,8.712106731419823,1568.0614,1615.0244,0.0,0.7218411,2.3201137,nan,2,205,0,0
691702610,691700771,46.94720053473648,8.712074805334337,1568.0394,1615.0061,0.0,0.7201095,2.319736,nan,2,225,0,0
691902303,691900640,46.94717562747307,8.712040762737526,1567.9716,1614.9395,0.0,0.7218704,2.320119,nan,2,245,0,0
692102113,692100509,46.94714878256385,8.712004781531881,1567.7363,1614.7098,0.0,0.72013074,2.3197439,nan,2,8,0,0
692301945,692300379,46.947120549667915,8.711967529881916,1567.1791,1614.1594,0.0,0.7201551,2.3197503,nan,2,28,0,0
692501426,692500248,46.94709155573664,8.71192953875775,1566.288,1613.2727,0.0,0.7218657,2.3201375,nan,2,48,0,0
692701698,692700118,46.94706233316821,8.711890488696685,1565.3174,1612.3173,0.0,0.7201235,2.3197567,nan,2,68,0,0
692901756,692899987,46.94703314728373,8.711849857568888,1564.519,1611.5267,0.0,0.7201009,2.3197598,nan,2,88,0,0
693101210,693099857,46.947004248142974,8.711807947744937,1563.988,1610.9985,0.0,0.7217104,2.3201418,nan,2,108,0,0
693301628,693299727,46.9469757647762,8.711765469649478,1563.6499,1610.6677,0.0,0.7200406,2.3197582,nan,2,128,0,0
693500818,693499596,46.94694767512541,8.711722631128708,1563.4601,1610.4795,0.0,0.72160053,2.3201337,nan,2,148,0,0
693701167,693699466,46.946920054255436,8.711679777970804,1563.4185,1610.4409,0.0,0.71995306,2.319747,nan,2,168,0,0
693900972,693899335,46.94689286614466,8.711636924145608,1563.4725,1610.4955,0.0,0.71992624,2.3197415,nan,2,188,0,0
694100445,694099205,46.94686610431096,8.711594269658363,1563.5942,1610.6172,0.0,0.7215155,2.3201084,nan,2,208,0,0
694300740,694299074,46.94683954515089,8.711552394529777,1563.7412,1610.7634,0.0,0.71990365,2.319727,nan,2,228,0,0
694500169,694498944,46.94681267393699,8.711511801999963,1563.9224,1610.944,0.0,0.7215423,2.3200905,nan,2,248,0,0
694700500,694698813,46.94678524469901,8.711473017515493,1564.1067,1611.1265,0.030795269,0.7199172,2.3197105,nan,2,12,0,0
694899878,694898683,46.946756981342,8.711436148219674,1564.2499,1611.269,0.0,0.7215886,2.3200696,nan,2,32,0,0
695110181,695108546,46.94672624091977,8.71139981119521,1564.3431,1611.3607,0.0,0.72009456,2.319727,nan,2,53,0,0
695300125,695298422,46.94669729285419,8.71136939232362,1564.3934,1611.41,0.0,0.71995175,2.3196821,nan,2,72,0,0
695499457,695498291,46.94666537688138,8.711340388971246,1564.4342,1611.4504,0.0,0.721653,2.3200366,nan,2,92,0,0
695699807,695698161,46.94663197088224,8.711315334336872,1564.5126,1611.5271,0.0,0.7199783,2.3196669,nan,2,112,0,0
695900202,695898030,46.946597108075835,8.711294910542476,1564.6599,1611.6727,0.0,0.7199998,2.319662,nan,2,132,0,0
696099042,696097900,46.94656110312658,8.711279430344433,1564.8711,1611.883,0.0,0.7218298,2.320025,nan,2,152,0,0
696299414,696297769,46.94652438884818,8.711269082270121,1565.1357,1612.1447,0.0,0.7200796,2.319664,nan,2,172,0,0
696499197,696497639,46.94648733890662,8.71126380861009,1565.439,1612.4467,0.0,0.7219514,2.320037,nan,2,192,0,0
696709044,696707502,46.946448668046266,8.711263482147448,1565.7914,1612.7953,0.0,0.72030026,2.319711,nan,2,213,0,0
696908700,696907371,46.94641239099478,8.711267025157914,1566.128,1613.1296,0.0,0.7203357,2.3197224,nan,2,233,0,0
697099106,697097247,46.946378515144765,8.711272969360921,1566.4287,1613.4292,0.0,0.722,2.320075,nan,2,252,0,0
697299224,697297118,46.946343534103974,8.711281000663154,1566.7314,1613.7288,0.0,0.7202085,2.31971,nan,2,16,0,0
697498283,697496986,46.94630910074331,8.71129018382398,1567.0393,1614.0358,0.0,0.72197396,2.320107,nan,2,36,0,0
697698562,697696856,46.946275153439785,8.711299787270766,1567.3086,1614.3032,0.0,0.72191465,2.3201149,nan,2,56,0,0
697908447,697906718,46.94623977569886,8.71130964471517,1567.5006,1614.4939,0.0,0.7203147,2.3197718,nan,2,77,0,0
698108293,698106590,46.9462060966584,8.711318251127343,1567.5658,1614.5593,0.0,0.72026074,2.319772,nan,2,97,0,0
698308105,698306465,46.94617216167603,8.71132548012344,1567.4904,1614.4852,0.0,0.72019017,2.3197675,nan,2,117,0,0
698507573,698506327,46.946137709736945,8.711330265764344,1567.3234,1614.319,0.0,0.7216771,2.3201385,nan,2,137,0,0
698708039,698706196,46.946102907695206,8.711331491449272,1567.1305,1614.129,0.0,0.7200066,2.319741,nan,2,157,0,0
698907800,698906065,46.94606788673066,8.711328453653232,1566.9468,1613.947,0.0,0.7199095,2.319719,nan,2,177,0,0
699097073,699095941,46.94603461575971,8.711321507618536,1566.7655,1613.7666,0.0,0.721189,2.3200288,nan,2,196,0,0
699307052,699305804,46.94599824424937,8.711308950531377,1566.5834,1613.587,0.0,0.7197829,2.319675,nan,2,216,0,0
699506914,699505673,46.94596443894231,8.711291982884042,1566.4629,1613.4673,0.0,0.7213095,2.3200104,nan,2,236,0,0
699707203,699705543,46.945931927752326,8.711270344007605,1566.397,1613.4033,0.0,0.71974784,2.3196383,nan,2,0,0,0
699907189,699905412,46.94590103535481,8.711244223450795,1566.3901,1613.3973,0.0,0.71977764,2.31963,nan,2,20,0,0
700106948,700105281,46.9458720224818,8.71121415187187,1566.4255,1613.4336,0.0,0.7198249,2.3196285,nan,2,40,0,0
700306804,700305151,46.94584505709846,8.711180459122659,1566.486,1613.4949,0.0,0.7198912,2.3196352,nan,2,60,0,0
700506657,700505020,46.945820404873636,8.711143399572133,1566.579,1613.5886,0.0,0.71994376,2.319645,nan,2,80,0,0
700706157,700704890,46.94579837264448,8.711103276832803,1566.71,1613.72,0.0,0.7217319,2.3200262,nan,2,100,0,0
700907083,700904758,46.94577910971325,8.711060385876157,1566.8674,1613.8782,0.0,0.7215092,2.3200092,nan,2,119,0,0
701106441,701104628,46.94576276922733,8.711015208206348,1567.0366,1614.0476,0.0,0.721318,2.3199897,nan,2,139,0,0
701306168,701304499,46.9457495647129,8.71096815044866,1567.2225,1614.2339,0.0,0.7211495,2.3199737,nan,2,159,0,0
701505996,701504366,46.94573958509712,8.710919704256447,1567.4188,1614.4303,0.0,0.7229177,2.3203807,nan,2,178,0,0
701705842,701704235,46.94573280884234,8.710870427416731,1567.6237,1614.6355,0.0,0.72085774,2.3199482,nan,2,198,0,0
701905856,701904109,46.94572926627889,8.710820610575993,1567.8359,1614.8481,0.0,0.7207394,2.3199396,nan,2,218,0,0
702106086,702103982,46.94572905525377,8.710770616740454,1568.0586,1615.0714,0.0,0.720642,2.3199346,nan,2,238,0,0
702305472,702303843,46.94573227759649,8.710720949620583,1568.2971,1615.3102,0.0,0.72054386,2.3199284,nan,2,2,0,0
702504956,702503712,46.945738830397055,8.710672125597547,1568.55,1615.5631,0.0,0.7221939,2.3203423,nan,2,22,0,0
702705617,702703581,46.94574857493168,8.71062473100518,1568.817,1615.8301,0.0,0.72035617,2.3199148,nan,2,42,0,0
702905078,702903450,46.945761324991615,8.710579026147037,1569.0802,1616.0936,0.0,0.72028756,2.319912,nan,2,62,0,0
703105136,703103319,46.94577711009021,8.71053543996467,1569.3448,1616.3583,0.0,0.7202244,2.319909,nan,2,82,0,0
703305260,703303188,46.94579572330073,8.710494352565355,1569.5992,1616.6129,0.0,0.7201688,2.3199072,nan,2,102,0,0
703504216,703503057,46.94581696606603,8.710456061242986,1569.832,1616.8457,0.0,0.72177136,2.3203244,nan,2,122,0,0
703704847,703702926,46.94584044469374,8.710420827321007,1570.0483,1617.0621,0.0,0.7200672,2.3199022,nan,2,142,0,0
703904893,703902795,46.94586580226033,8.710388519757068,1570.2407,1617.2548,0.0,0.7200305,2.3199015,nan,2,162,0,0
704104358,704102664,46.94589260170152,8.710358971935149,1570.4027,1617.4171,0.0,0.7199987,2.3199003,nan,2,182,0,0
704304198,704302533,46.94592053370657,8.710331863263033,1570.5333,1617.5482,0.0,0.7214684,2.3202887,nan,2,202,0,0
704503543,704502402,46.94594933671964,8.710306916564424,1570.6396,1617.6549,0.0,0.72310024,2.3207073,nan,2,222,0,0
704703869,704702271,46.94597876620262,8.710283958784503,1570.7411,1617.7568,0.0,0.7209962,2.3201826,nan,2,242,0,0
704903886,704902140,46.94600876835495,8.710262536655097,1570.8208,1617.8373,0.0,0.72081715,2.320138,nan,2,6,0,0
705103454,705102008,46.94603926783495,8.710242374398339,1570.8763,1617.8932,0.0,0.722387,2.320537,nan,2,26,0,0
705303621,705301877,46.94607014648989,8.710223369908938,1570.9247,1617.9427,0.0,0.7205154,2.3200548,nan,2,46,0,0
705502975,705501746,46.94610143766378,8.710205408813245,1570.971,1617.9894,0.0,0.7220685,2.320443,nan,2,66,0,0
705703267,705701615,46.94613301894967,8.710188387799898,1571.0021,1618.0216,0.0,0.72029155,2.3199818,nan,2,86,0,0
705903236,705901484,46.94616494276599,8.71017220395149,1571.0219,1618.0422,0.0,0.7202085,2.3199499,nan,2,106,0,0
706103141,706101353,46.946197170828675,8.710156929634104,1571.0432,1618.0643,0.0,0.7201388,2.3199205,nan,2,126,0,0
706302911,706301221,46.946229676792434,8.71014264063067,1571.0731,1618.0951,0.0,0.72008216,2.3198934,nan,2,146,0,0
706502339,706501090,46.94626243307685,8.710129409307262,1571.1107,1618.133,0.0,0.7216457,2.3202646,nan,2,166,0,0
706702610,706700958,46.94629530739698,8.710117241903113,1571.1268,1618.1506,0.0,0.7199849,2.3198428,nan,2,186,0,0
706902539,706900827,46.94632841254966,8.71010600594974,1571.0839,1618.1093,0.0,0.7199572,2.3198237,nan,2,206,0,0
707101848,707100696,46.94636176822968,8.710095820244298,1571.0105,1618.0366,0.0,0.7215216,2.3201919,nan,2,226,0,0
707302270,707300564,46.946395334439906,8.71008686047276,1570.922,1617.9508,0.0,0.7199046,2.3197901,nan,2,246,0,0
707501718,707500433,46.94642921883868,8.710079332264993,1570.8452,1617.8749,0.0,0.7214753,2.320158,nan,2,10,0,0
707701890,707700302,46.946463314667,8.710073335731495,1570.7856,1617.8177,0.0,0.71986306,2.3197634,nan,2,30,0,0
707901749,707900170,46.94649769575459,8.71006896675329,1570.7386,1617.7721,0.0,0.71986055,2.319755,nan,2,50,0,0
708101314,708100039,46.94653230405389,8.710066165636253,1570.6606,1617.695,0.0,0.72144455,2.3201241,nan,2,70,0,0
708301430,708299907,46.94656702560083,8.710065006963584,1570.5289,1617.5664,0.0,0.7198513,2.319741,nan,2,90,0,0
708500926,708499779,46.94660191591039,8.710065814161252,1570.3557,1617.3945,0.0,0.7214239,2.320111,nan,2,110,0,0
708700886,708699644,46.946636819307905,8.710068936998546,1570.1849,1617.2263,0.0,0.72139883,2.3201034,nan,2,130,0,0
708901716,708899513,46.94667176063542,8.710074573876152,1570.0228,1617.0676,0.0,0.71981716,2.3197262,nan,2,150,0,0
709100875,709099381,46.94670674325633,8.71008280399703,1569.8582,1616.9042,0.0,0.72139674,2.3200994,nan,2,170,0,0
709300953,709299249,46.946741591386996,8.710093758634603,1569.7007,1616.7501,0.0,0.71981555,2.319724,nan,2,190,0,0
709500827,709499118,46.94677617617547,8.710107605041209,1569.5609,1616.6115,0.0,0.72140604,2.3200996,nan,2,210,0,0
709700859,709698986,46.946810181248196,8.71012439268572,1569.4503,1616.5039,0.0,0.71981317,2.3197234,nan,2,230,0,0
709900567,709898854,46.946843532503216,8.710144174844583,1569.3672,1616.4225,0.0,0.71982676,2.3197265,nan,2,250,0,0
710100865,710098723,46.94687610903895,8.710166750114942,1569.2941,1616.351,0.0,0.719843,2.31973,nan,2,14,0,0
710300076,710298591,46.946907759903404,8.710192015790971,1569.2402,1616.2979,0.0,0.72146875,2.3201122,nan,2,34,0,0
710510243,710508452,46.94693982856071,8.710221281405635,1569.2139,1616.2738,0.0,0.7200099,2.3197732,nan,2,55,0,0
710700513,710698327,46.946967729521866,8.710250043706068,1569.2211,1616.2822,0.0,0.719865,2.3197381,nan,2,74,0,0
710899927,710898195,46.94699604274011,8.710282382418521,1569.229,1616.2914,0.0,0.71987593,2.3197417,nan,2,94,0,0
711099279,711098064,46.947023250740166,8.710316716656969,1569.2318,1616.2947,0.0,0.72151023,2.3201287,nan,2,114,0,0
711300112,711297932,46.94704923797413,8.710352937076756,1569.2485,1616.3127,0.0,0.7198954,2.3197563,nan,2,134,0,0
711498954,711497800,46.947073984234294,8.71039107282573,1569.2865,1616.3511,0.0,0.721528,2.3201451,nan,2,154,0,0
711698801,711697669,46.94709742772762,8.710430843695594,1569.3363,1616.4012,0.0,0.7215149,2.3201456,nan,2,174,0,0
711908786,711907530,46.947120607870986,8.710474263986717,1569.3926,1616.4579,0.0,0.7200418,2.319794,nan,2,195,0,0
712109161,712107398,46.94714128739587,8.710517203793534,1569.4525,1616.518,0.0,0.7200305,2.319794,nan,2,215,0,0
712308942,712307266,46.947160556490076,8.710561493887603,1569.5215,1616.587,0.0,0.7200181,2.3197935,nan,2,235,0,0
712508851,712507134,46.947178393846904,8.710607087029768,1569.5974,1616.6632,0.0,0.72000635,2.3197932,nan,2,255,0,0
712698252,712697008,46.94719398546912,8.710651526473592,1569.6764,1616.7423,0.0,0.72145003,2.3201468,nan,2,18,0,0
712898260,712896876,46.947208961126336,8.710699416948001,1569.76,1616.826,0.0,0.7214458,2.3201482,nan,2,38,0,0
713098006,713096744,46.947222368703315,8.710748318999293,1569.8525,1616.9186,0.0,0.72142977,2.320147,nan,2,58,0,0
713308822,713306605,46.94723478322844,8.710800582240514,1569.9321,1616.9984,0.0,0.7199682,2.319798,nan,2,79,0,0
713508140,713506473,46.94724500276272,8.710851117875013,1569.987,1617.0538,0.0,0.7199559,2.3197968,nan,2,99,0,0
713707733,713706341,46.947253488474225,8.710902349892432,1570.0475,1617.1145,0.0,0.719952,2.3197975,nan,2,119,0,0
713908249,713906209,46.94726000971986,8.710954261711771,1570.1449,1617.212,0.0,0.71993953,2.319796,nan,2,139,0,0
714107780,714106076,46.94726451292672,8.711006670910152,1570.2955,1617.3624,0.0,0.719933,2.3197954,nan,2,159,0,0
714307676,714305946,46.947267211237836,8.711059437068162,1570.4635,1617.53,0.0,0.71993136,2.3197947,nan,2,179,0,0
714496994,714495818,46.94726830268325,8.711109715040918,1570.5939,1617.6604,0.0,0.72137403,2.320142,nan,2,198,0,0
714707297,714705679,46.947267690844434,8.711165304320774,1570.7218,1617.7882,0.0,0.71991736,2.319792,nan,2,219,0,0
714907313,714905547,46.947265210706135,8.711218276864887,1570.8403,1617.9066,0.0,0.7199136,2.3197918,nan,2,239,0,0
715107494,715105415,46.94726084415161,8.711270983813463,1570.9615,1618.0278,0.0,0.7199097,2.3197918,nan,2,3,0,0
715306950,715305282,46.94725454942778,8.71132320133441,1571.0865,1618.1527,0.0,0.71990806,2.3197918,nan,2,23,0,0
715506907,715505150,46.94724636058178,8.711374685191107,1571.2153,1618.2814,0.0,0.719907,2.3197918,nan,2,43,0,0
715707059,715705017,46.947236452352335,8.711425255669251,1571.3282,1618.3945,0.0,0.7199067,2.3197923,nan,2,63,0,0
715906454,715904885,46.947224839026944,8.711474678986573,1571.4382,1618.5046,0.0,0.7199055,2.3197925,nan,2,83,0,0
716106443,716104752,46.94721164285635,8.711522792718474,1571.5411,1618.6078,0.0,0.7199049,2.319793,nan,2,103,0,0
716306162,716304620,46.94719700921501,8.711569533338864,1571.6196,1618.6868,0.0,0.7199041,2.3197935,nan,2,123,0,0
716505646,716504487,46.94718095542824,8.711614779433287,1571.6873,1618.7546,0.0,0.72150874,2.320184,nan,2,143,0,0
716706049,716704355,46.94716359470755,8.711658366971395,1571.7487,1618.8165,0.0,0.7198815,2.3197901,nan,2,163,0,0
716906183,716904222,46.94714495209963,8.711700439172406,1571.7977,1618.8662,0.0,0.7198818,2.3197908,nan,2,183,0,0
717105871,717104089,46.94712507831113,8.71174101261755,1571.8381,1618.9076,0.0,0.7198819,2.3197913,nan,2,203,0,0
717305618,717303957,46.9471040174615,8.711780061977478,1571.8738,1618.9441,0.0,0.71988124,2.3197918,nan,2,223,0,0
717505467,717503824,46.9470817990553,8.711817517449521,1571.9105,1618.9817,0.0,0.71988016,2.319792,nan,2,243,0,0
717705587,717703691,46.94705850556606,8.711853292194899,1571.9442,1619.0162,0.0,0.71987146,2.3197901,nan,2,7,0,0
717905183,717903558,46.94703420272672,8.711887431088636,1571.9573,1619.0304,0.0,0.71987236,2.3197901,nan,2,26,0,0
718104681,718103426,46.94700886449943,8.711919811865979,1571.9703,1619.044,0.0,0.72146684,2.3201795,nan,2,46,0,0
718304961,718303293,46.94698256179618,8.711950297486965,1571.9878,1619.0629,0.0,0.7198621,2.319788,nan,2,66,0,0
718504572,718503160,46.9469553235736,8.711978975894942,1571.9948,1619.0704,0.0,0.72145724,2.320177,nan,2,86,0,0
718704765,718703027,46.94692727724665,8.712005785027415,1571.9883,1619.0657,0.0,0.7198549,2.3197858,nan,2,106,0,0
718904558,718902894,46.94689842106724,8.71203077076696,1571.9707,1619.0493,0.0,0.7198557,2.3197858,nan,2,126,0,0
719104398,719102761,46.94686879164092,8.712053813613837,1571.9628,1619.0426,0.0,0.71985525,2.3197856,nan,2,146,0,0
719304368,719302628,46.94683847092662,8.712074872512915,1571.9589,1619.0398,0.0,0.7198559,2.3197854,nan,2,166,0,0
719503640,719502495,46.946807513540925,8.712093882640165,1571.9602,1619.0416,0.0,0.72144806,2.3201725,nan,2,186,0,0
719703960,719702362,46.94677612038284,8.712110783743535,1571.9618,1619.045,0.0,0.7198399,2.31978,nan,2,206,0,0
719903853,719902229,46.94674424946225,8.712125571303966,1571.9514,1619.036,0.0,0.7198425,2.3197799,nan,2,226,0,0
720103859,720102096,46.946711969529744,8.71213818421699,1571.9274,1619.0135,0.0,0.7198448,2.3197794,nan,2,246,0,0
720303495,720301963,46.946679366969036,8.712148505999892,1571.8949,1618.9824,0.0,0.7198453,2.3197792,nan,2,10,0,0
720503072,720501830,46.946646521508725,8.71215650936882,1571.8577,1618.9459,0.0,0.72143346,2.3201652,nan,2,28,0,0
720703909,720701696,46.94661358101028,8.71216230327422,1571.8094,1618.8999,0.0,0.7198298,2.3197744,nan,2,48,0,0
720903525,720901563,46.94658052866381,8.712165859126591,1571.7529,1618.845,0.0,0.7198232,2.3197725,nan,2,67,0,0
721102713,721101430,46.94654738642516,8.712167062454666,1571.7002,1618.7931,0.0,0.72140884,2.3201578,nan,2,86,0,0
721303360,721301297,46.946514279306946,8.712165927583701,1571.6486,1618.7437,0.0,0.71982116,2.3197708,nan,2,106,0,0
721502453,721501165,46.94648123605778,8.712162426778432,1571.5961,1618.6919,0.0,0.721411,2.3201563,nan,2,126,0,0
721702925,721701031,46.946448428621196,8.712156590997216,1571.5437,1618.6415,0.0,0.7198136,2.3197677,nan,2,146,0,0
721903087,721900896,46.94641585576187,8.71214842531977,1571.4945,1618.5936,0.0,0.7198206,2.3197684,nan,2,165,0,0
722102112,722100763,46.94638360111833,8.712137943870392,1571.4463,1618.546,0.0,0.7214154,2.320154,nan,2,185,0,0
722302432,722300629,46.94635185728643,8.71212523268326,1571.4119,1618.5131,0.0,0.71981645,2.3197658,nan,2,204,0,0
722502369,722500496,46.9463206010744,8.712110311310338,1571.3954,1618.497,0.0,0.7214151,2.3201516,nan,2,224,0,0
722702177,722700362,46.946289936019205,8.712093424030307,1571.3789,1618.4817,0.0,0.71981764,2.319764,nan,2,244,0,0
722902021,722900229,46.94625982932307,8.712074569489513,1571.3536,1618.4574,0.0,0.7198269,2.3197649,nan,2,7,0,0
723101821,723100095,46.9462303421876,8.712053743569353,1571.3351,1618.4392,0.0,0.7214225,2.3201501,nan,2,27,0,0
723301765,723299962,46.94620158864662,8.712031028282654,1571.3268,1618.4316,0.0,0.7198321,2.3197646,nan,2,46,0,0
723501033,723499828,46.946173566229014,8.712006437149382,1571.3271,1618.4323,0.0,0.7214287,2.3201497,nan,2,66,0,0
723700957,723699694,46.94614633654906,8.71198018359152,1571.312,1618.4178,0.0,0.721423,2.320155,nan,2,86,0,0
723901183,723899561,46.94611995573117,8.711952317158303,1571.2761,1618.3834,0.0,0.7198235,2.319767,nan,2,106,0,0
724100690,724099427,46.94609448634809,8.711922678802148,1571.2517,1618.3595,0.0,0.72139686,2.3201494,nan,2,125,0,0
724300914,724299294,46.94606999344356,8.711891302192056,1571.247,1618.356,0.0,0.7198131,2.3197644,nan,2,145,0,0
724500422,724499159,46.946046419244745,8.711858268788067,1571.2347,1618.3442,0.0,0.72140217,2.3201492,nan,2,165,0,0
724700481,724699025,46.94602383812824,8.711823832613476,1571.1907,1618.3011,0.0,0.721383,2.3201454,nan,2,185,0,0
724900264,724898891,46.94600230951149,8.711787995828047,1571.1279,1618.2397,0.0,0.72136307,2.320142,nan,2,205,0,0
725099990,725098758,46.94598197953776,8.711750669683996,1571.0746,1618.1875,0.0,0.7213483,2.320139,nan,2,225,0,0
725299849,725298624,46.94596292038685,8.71171192975822,1571.0366,1618.1505,0.0,0.721337,2.3201363,nan,2,245,0,0
725499754,725498490,46.94594515620982,8.711671870924699,1571.0076,1618.1223,0.0,0.72134006,2.320136,nan,2,9,0,0
725699698,725698356,46.94592873915267,8.711630687052786,1570.9819,1618.0977,0.0,0.7213329,2.320134,nan,2,29,0,0
725909851,725908215,46.94591297414896,8.711586419233996,1570.95,1618.0671,0.0,0.71989733,2.3197865,nan,2,50,0,0
726109783,726108081,46.94589939829915,8.711543338949841,1570.924,1618.0422,0.0,0.7198921,2.319785,nan,2,70,0,0
726299716,726297953,46.94588779369259,8.7115016783624,1570.896,1618.0154,0.0,0.7197491,2.3197477,nan,2,89,0,0
726499148,726497819,46.94587689808568,8.711457073118341,1570.8634,1617.9834,0.0,0.7213214,2.320129,nan,2,109,0,0
726698939,726697685,46.945867379788226,8.711411858306173,1570.8281,1617.9492,0.0,0.72131515,2.3201272,nan,2,129,0,0
726898709,726897551,46.94585924922934,8.711366095330254,1570.7905,1617.913,0.0,0.7213096,2.3201258,nan,2,149,0,0
727098549,727097416,46.94585257556996,8.711319775843785,1570.7673,1617.891,0.0,0.7213051,2.3201244,nan,2,169,0,0
727308995,727307276,46.94584706951095,8.711270610878936,1570.7444,1617.8701,0.0,0.7198869,2.3197813,nan,2,190,0,0
727509255,727507141,46.94584324570351,8.711223425802713,1570.709,1617.8362,0.0,0.7198832,2.31978,nan,2,210,0,0
727708705,727707007,46.94584079358035,8.711175980190616,1570.6587,1617.7875,0.0,0.71987873,2.3197792,nan,2,230,0,0
727908417,727906872,46.94583976954152,8.711128321475195,1570.6073,1617.7373,0.0,0.71987265,2.319778,nan,2,249,0,0
728108287,728106738,46.9458402815845,8.711080541911912,1570.5837,1617.715,0.0,0.7198675,2.3197768,nan,2,13,0,0
728297751,728296614,46.9458421422931,8.711035105550977,1570.5686,1617.7006,0.0,0.7212875,2.3201194,nan,2,32,0,0
728497850,728496476,46.94584551366723,8.710987352128765,1570.5527,1617.686,0.0,0.72128445,2.3201182,nan,2,52,0,0
728708201,728706334,46.94585062473659,8.710937492188828,1570.5425,1617.6775,0.0,0.7198532,2.3197725,nan,2,73,0,0
728907896,728906200,46.94585694821224,8.710890272030486,1570.5159,1617.6522,0.0,0.7198535,2.319772,nan,2,93,0,0
729107724,729106065,46.94586478389934,8.710843368095919,1570.4813,1617.6189,0.0,0.7198603,2.3197732,nan,2,113,0,0
729307689,729305930,46.94587414524982,8.710796996162363,1570.4479,1617.5868,0.0,0.7198575,2.3197727,nan,2,133,0,0
729507589,729505796,46.94588501525047,8.710751286479605,1570.4121,1617.5525,0.0,0.7198554,2.3197722,nan,2,153,0,0
729707376,729705661,46.945897335171026,8.710706328092636,1570.3677,1617.5094,0.0,0.7198538,2.3197718,nan,2,173,0,0
729907272,729905526,46.945911078391845,8.710662193965065,1570.3116,1617.4548,0.0,0.71985173,2.3197715,nan,2,193,0,0
730107078,730105392,46.94592623805481,8.710619010528095,1570.2499,1617.3945,0.0,0.7198496,2.319771,nan,2,213,0,0
730306889,730305257,46.945942866172075,8.71057692330672,1570.197,1617.343,0.0,0.7198474,2.3197708,nan,2,233,0,0
730506363,730505122,46.945960919932034,8.710536018532517,1570.1493,1617.2959,0.0,0.7214325,2.3201547,nan,2,253,0,0
730706605,730704987,46.945980245233734,8.710496410583024,1570.0934,1617.2421,0.0,0.71983963,2.3197691,nan,2,17,0,0
730906455,730904852,46.94600096064077,8.71045806447664,1570.0345,1617.1843,0.0,0.7198495,2.3197713,nan,2,37,0,0
731106404,731104717,46.94602300920868,8.710421131573241,1569.9822,1617.1329,0.0,0.71984977,2.3197715,nan,2,57,0,0
731306142,731304582,46.94604633810909,8.71038572102144,1569.9379,1617.0896,0.0,0.7198516,2.319772,nan,2,77,0,0
731505660,731504447,46.94607087543869,8.710351906191734,1569.9043,1617.0564,0.0,0.7214429,2.3201568,nan,2,97,0,0
731706003,731704312,46.94609650126708,8.710319855333152,1569.8799,1617.033,0.0,0.719837,2.319769,nan,2,117,0,0
731905708,731904176,46.94612324235549,8.71028960623469,1569.873,1617.0266,0.0,0.7198415,2.3197696,nan,2,137,0,0
732105623,732104041,46.94615098645397,8.71026111769536,1569.8604,1617.0145,0.0,0.7198468,2.3197703,nan,2,157,0,0
732305549,732303906,46.94617964848666,8.710234519772682,1569.8433,1616.9978,0.0,0.7198495,2.3197708,nan,2,177,0,0
732505520,732503771,46.946209183722694,8.710209971669263,1569.8418,1616.9966,0.0,0.72143984,2.3201559,nan,2,197,0,0
732705474,732703636,46.94623945946811,8.710187561636218,1569.8499,1617.0048,0.0,0.7198444,2.3197699,nan,2,217,0,0
732905210,732903500,46.946270434556304,8.710167281235758,1569.8572,1617.0121,0.0,0.71984726,2.3197706,nan,2,237,0,0
733105086,733103365,46.946302011147246,8.71014916323979,1569.8687,1617.0236,0.0,0.7214367,2.3201556,nan,2,1,0,0
733304904,733303231,46.94633408893214,8.710133301728504,1569.8992,1617.0537,0.0,0.71984196,2.3197696,nan,2,21,0,0
733504781,733503094,46.9463666141859,8.710119597409419,1569.9171,1617.0715,0.0,0.7198451,2.31977,nan,2,41,0,0
733705208,733702959,46.94639954190115,8.710108134109172,1569.9373,1617.0914,0.0,0.7198456,2.3197708,nan,2,61,0,0
733904607,733902823,46.946432809981275,8.710098788414694,1569.9427,1617.0968,0.0,0.7198467,2.3197713,nan,2,81,0,0
734104420,734102688,46.9464664059409,8.710091634301914,1569.9441,1617.098,0.0,0.71984446,2.3197713,nan,2,101,0,0
734304725,734302552,46.94650030611116,8.710086769064711,1569.9604,1617.1141,0.0,0.71984214,2.3197713,nan,2,121,0,0
734503672,734502421,46.94653445017761,8.710084007379022,1569.9651,1617.1187,0.0,0.72142273,2.320156,nan,2,141,0,0
734704030,734702281,46.94656869590734,8.710083406543463,1569.9624,1617.1161,0.0,0.71982116,2.3197677,nan,2,161,0,0
734904328,734902145,46.94660314361618,8.710085142642374,1569.958,1617.1118,0.0,0.71981937,2.319768,nan,2,181,0,0
735103328,735102009,46.946637751108504,8.710089276990436,1569.9458,1617.0997,0.0,0.72139174,2.3201518,nan,2,201,0,0
735303548,735301874,46.94667233539584,8.710095904276919,1569.924,1617.0782,0.0,0.7198081,2.3197665,nan,2,221,0,0
735503366,735501738,46.94670686217572,8.710105224915837,1569.9006,1617.055,0.0,0.7213799,2.3201509,nan,2,241,0,0
735703240,735701602,46.946741098986976,8.710117220028243,1569.8776,1617.0322,0.0,0.7198002,2.319766,nan,2,5,0,0
735903109,735901466,46.94677498627479,8.710131980076739,1569.858,1617.0128,0.0,0.7198028,2.319767,nan,2,25,0,0
736102495,736101330,46.946808335081016,8.7101496236715,1569.8578,1617.0127,0.0,0.721387,2.3201597,nan,2,45,0,0
736302881,736301194,46.94684093921924,8.710169979163343,1569.8615,1617.0167,0.0,0.7198055,2.319774,nan,2,65,0,0
736502425,736501058,46.94687281432648,8.710192799311846,1569.845,1617.0004,0.0,0.7213956,2.3201613,nan,2,85,0,0
736702906,736700930,46.94690380965395,8.71021784371768,1569.8177,1616.974,0.0,0.7198007,2.3197732,nan,2,105,0,0
736902419,736900786,46.946933930724676,8.710245168867452,1569.7867,1616.9434,0.0,0.7198074,2.319775,nan,2,125,0,0
737102345,737100650,46.946963151771236,8.710274691747019,1569.7511,1616.9081,0.0,0.71981233,2.3197768,nan,2,145,0,0
737301786,737300514,46.94699137131172,8.7103063178874,1569.7076,1616.8649,0.0,0.7213963,2.3201652,nan,2,165,0,0
737501644,737500378,46.947018467725755,8.710339925281176,1569.6682,1616.8259,0.0,0.72139025,2.320165,nan,2,185,0,0
737701911,737700241,46.94704436406058,8.710375421266003,1569.6299,1616.7886,0.0,0.71979636,2.3197758,nan,2,205,0,0
737901832,737900106,46.9470690955809,8.710412780111243,1569.582,1616.7413,0.0,0.719801,2.3197777,nan,2,225,0,0
738101153,738099969,46.94709263339744,8.710451924026545,1569.5227,1616.6825,0.0,0.7213812,2.3201663,nan,2,245,0,0
738301683,738299832,46.9471147646355,8.71049276216263,1569.4747,1616.6357,0.0,0.71979827,2.3197787,nan,2,9,0,0
738500897,738499697,46.94713550277508,8.71053525974274,1569.4327,1616.594,0.0,0.72137976,2.3201673,nan,2,29,0,0
738701232,738699559,46.947154693258184,8.710579090528435,1569.4005,1616.5627,0.0,0.7197801,2.3197756,nan,2,49,0,0
738900983,738899423,46.947172328949776,8.710624381155402,1569.3806,1616.5433,0.0,0.71977746,2.3197753,nan,2,69,0,0
739100490,739099287,46.94718836789003,8.710671051016687,1569.3667,1616.5297,0.0,0.721362,2.3201642,nan,2,89,0,0
739300786,739299150,46.94720270465055,8.710718910357329,1569.3696,1616.533,0.0,0.71978533,2.319777,nan,2,109,0,0
739500164,739499013,46.94721533967483,8.710767895653747,1569.3867,1616.5502,0.0,0.72137696,2.3201666,nan,2,129,0,0
739700042,739698881,46.94722633733145,8.710817631006408,1569.4043,1616.568,0.0,0.7213638,2.3201642,nan,2,149,0,0
739910686,739908733,46.947236072215176,8.710870636091835,1569.4303,1616.5939,0.0,0.71992624,2.3198135,nan,2,170,0,0
740099748,740098603,46.947243303224596,8.710919181408942,1569.4547,1616.6183,0.0,0.72135234,2.3201618,nan,2,189,0,0
740299745,740298467,46.94724932317242,8.710970735634426,1569.475,1616.6384,0.0,0.7213395,2.3201592,nan,2,209,0,0
740499723,740498330,46.94725369102654,8.711022679684472,1569.4949,1616.6581,0.0,0.7213282,2.3201568,nan,2,229,0,0
740699857,740698193,46.94725639505079,8.711074802692409,1569.518,1616.6808,0.0,0.71974224,2.3197668,nan,2,249,0,0
740899269,740898056,46.947257402449736,8.71112723470952,1569.5403,1616.7029,0.0,0.7213068,2.3201525,nan,2,13,0,0
741099701,741097919,46.947256733237076,8.711179686774583,1569.5581,1616.7205,0.0,0.72129583,2.3201501,nan,2,33,0,0
741309043,741307775,46.9472541986895,8.71123468018943,1569.5769,1616.7388,0.0,0.7198769,2.319802,nan,2,54,0,0
741509312,741507638,46.94725004051632,8.711286929615834,1569.5845,1616.7461,0.0,0.71986914,2.3198001,nan,2,74,0,0
741709122,741707501,46.947244189860946,8.711338838056799,1569.5776,1616.7391,0.0,0.7198612,2.3197985,nan,2,94,0,0
741899060,741897371,46.94723703586666,8.711387712231211,1569.5596,1616.7212,0.0,0.71971583,2.3197606,nan,2,113,0,0
742098430,742097235,46.94722773324542,8.7114385861132,1569.5386,1616.7002,0.0,0.7212726,2.3201454,nan,2,133,0,0
742298795,742297097,46.94721639071675,8.711488506517805,1569.5662,1616.7279,0.0,0.7212692,2.320144,nan,2,153,0,0
742498104,742496959,46.947202976409436,8.711537285091886,1569.641,1616.8024,0.0,0.721277,2.3201432,nan,2,173,0,0
742708493,742706815,46.947186963605155,8.711587206145916,1569.7167,1616.8773,0.0,0.71985435,2.3197947,nan,2,194,0,0
742908269,742906678,46.947169892462384,8.711633282124861,1569.8041,1616.9641,0.0,0.7198579,2.3197944,nan,2,214,0,0
743108202,743106541,46.94715130594093,8.7116778547303,1569.8811,1617.0405,0.0,0.71986425,2.3197947,nan,2,234,0,0
743308035,743306404,46.947131260681,8.711720749983003,1569.975,1617.1337,0.030795269,0.7198666,2.3197947,nan,2,254,0,0
743507937,743506266,46.94710981833279,8.71176192606983,1570.0853,1617.2432,0.0,0.71987987,2.319797,nan,2,18,0,0
743707699,743706129,46.94708717379299,8.711801414193749,1570.188,1617.3451,0.0,0.719883,2.319797,nan,2,38,0,0
743897149,743895999,46.94706466019687,8.711837303364327,1570.2789,1617.4357,0.0,0.72131383,2.3201456,nan,2,57,0,0
744107559,744105854,46.94703867249582,8.711875055531275,1570.375,1617.5306,0.0,0.7198805,2.3197963,nan,2,78,0,0
744307054,744305716,46.94701285821235,8.711909073815587,1570.4623,1617.6174,0.0,0.7198881,2.3197978,nan,2,98,0,0
744507025,744505578,46.9469860919053,8.71194124267142,1570.524,1617.679,0.0,0.7214764,2.3201876,nan,2,118,0,0
744707264,744705441,46.94695859780269,8.711971526015528,1570.5422,1617.6968,0.0,0.7198677,2.3197942,nan,2,138,0,0
744906985,744905303,46.946930215076584,8.711999740277749,1570.5524,1617.7068,0.0,0.7198583,2.3197932,nan,2,158,0,0
745106833,745105165,46.94690095230463,8.712025791286061,1570.57,1617.7241,0.0,0.71985024,2.3197923,nan,2,178,0,0
745306748,745305027,46.946870925341685,8.712049817437714,1570.5708,1617.7251,0.0,0.7198538,2.3197935,nan,2,198,0,0
745506648,745504890,46.946840234466144,8.712071716670662,1570.5587,1617.7131,0.0,0.7198467,2.3197925,nan,2,218,0,0
745705991,745704752,46.94680899968225,8.712091333605061,1570.5479,1617.7024,0.0,0.7214071,2.320178,nan,2,238,0,0
745906261,745904614,46.94677733090885,8.712108657690179,1570.5306,1617.6855,0.0,0.71981764,2.3197865,nan,2,2,0,0
746106518,746104476,46.94674517332552,8.712123730137378,1570.4993,1617.6543,0.0,0.7198146,2.319786,nan,2,22,0,0
746305973,746304338,46.94671259705503,8.71213645677619,1570.4642,1617.6194,0.0,0.71981245,2.3197856,nan,2,42,0,0
746505422,746504201,46.94667969403939,8.7121468524343,1570.4264,1617.5817,0.0,0.72138435,2.3201725,nan,2,62,0,0
746706186,746704062,46.94664659711352,8.712154911737631,1570.3892,1617.5447,0.0,0.7198018,2.3197823,nan,2,80,0,0
746905841,746903924,46.94661332226453,8.71216058453823,1570.3584,1617.5142,0.0,0.7198033,2.3197818,nan,2,98,0,0
747105487,747103785,46.946579981949085,8.71216385405518,1570.3398,1617.4957,0.0,0.7198051,2.3197813,nan,2,116,0,0
747305884,747303647,46.946546698572625,8.712164733910338,1570.3281,1617.4843,0.0,0.71980876,2.319781,nan,2,136,0,0
747504726,747503509,46.94651356140087,8.712163318833305,1570.3105,1617.4667,0.0,0.72139126,2.3201678,nan,2,156,0,0
747705017,747703371,46.94648068783079,8.712159750840714,1570.2871,1617.4437,0.0,0.71979845,2.3197763,nan,2,176,0,0
747905326,747903234,46.946447982696306,8.712154050239281,1570.2646,1617.4219,0.0,0.7198019,2.319776,nan,2,196,0,0
748104823,748103094,46.946415492036145,8.712146179845696,1570.2462,1617.404,0.0,0.71980566,2.3197758,nan,2,216,0,0
748304841,748302956,46.94638326401585,8.712136095139792,1570.2338,1617.3921,0.0,0.7198083,2.3197756,nan,2,236,0,0
748504766,748502823,46.946351369305994,8.712123792607102,1570.2253,1617.384,0.0,0.72138715,2.3201678,nan,2,0,0,0
